{
    "type": "FeatureCollection",
    "features": [
        {
            "type": "Feature",
            "properties": {
                "name": "Damascus",
                "name_ar": "دمشق",
                "type": "governorate"
            },
            "geometry": {
                "type": "Point",
                "coordinates": [
                    36.2765,
                    33.5138
                ]
            }
        },
        {
            "type": "Feature",
            "properties": {
                "name": "Aleppo",
                "name_ar": "حلب",
                "type": "governorate"
            },
            "geometry": {
                "type": "Point",
                "coordinates": [
                    37.1343,
                    36.2022
                ]
            }
        },
        {
            "type": "Feature",
            "properties": {
                "name": "Homs",
                "name_ar": "حمص",
                "type": "governorate"
            },
            "geometry": {
                "type": "Point",
                "coordinates": [
                    36.7167,
                    34.7333
                ]
            }
        },
        {
            "type": "Feature",
            "properties": {
                "name": "Hama",
                "name_ar": "حماة",
                "type": "governorate"
            },
            "geometry": {
                "type": "Point",
                "coordinates": [
                    36.7500,
                    35.1333
                ]
            }
        },
        {
            "type": "Feature",
            "properties": {
                "name": "Latakia",
                "name_ar": "اللاذقية",
                "type": "governorate"
            },
            "geometry": {
                "type": "Point",
                "coordinates": [
                    35.7833,
                    35.5167
                ]
            }
        },
        {
            "type": "Feature",
            "properties": {
                "name": "Tartus",
                "name_ar": "طرطوس",
                "type": "governorate"
            },
            "geometry": {
                "type": "Point",
                "coordinates": [
                    35.8833,
                    34.9000
                ]
            }
        },
        {
            "type": "Feature",
            "properties": {
                "name": "Idlib",
                "name_ar": "إدلب",
                "type": "governorate"
            },
            "geometry": {
                "type": "Point",
                "coordinates": [
                    36.6333,
                    35.9333
                ]
            }
        },
        {
            "type": "Feature",
            "properties": {
                "name": "Raqqa",
                "name_ar": "الرقة",
                "type": "governorate"
            },
            "geometry": {
                "type": "Point",
                "coordinates": [
                    39.0167,
                    35.9500
                ]
            }
        },
        {
            "type": "Feature",
            "properties": {
                "name": "Deir ez-Zor",
                "name_ar": "دير الزور",
                "type": "governorate"
            },
            "geometry": {
                "type": "Point",
                "coordinates": [
                    40.1333,
                    35.3333
                ]
            }
        },
        {
            "type": "Feature",
            "properties": {
                "name": "Al-Hasakah",
                "name_ar": "الحسكة",
                "type": "governorate"
            },
            "geometry": {
                "type": "Point",
                "coordinates": [
                    40.7500,
                    36.5000
                ]
            }
        },
        {
            "type": "Feature",
            "properties": {
                "name": "Daraa",
                "name_ar": "درعا",
                "type": "governorate"
            },
            "geometry": {
                "type": "Point",
                "coordinates": [
                    36.1000,
                    32.6167
                ]
            }
        },
        {
            "type": "Feature",
            "properties": {
                "name": "As-Suwayda",
                "name_ar": "السويداء",
                "type": "governorate"
            },
            "geometry": {
                "type": "Point",
                "coordinates": [
                    36.5667,
                    32.7000
                ]
            }
        },
        {
            "type": "Feature",
            "properties": {
                "name": "Quneitra",
                "name_ar": "القنيطرة",
                "type": "governorate"
            },
            "geometry": {
                "type": "Point",
                "coordinates": [
                    35.8200,
                    33.1264
                ]
            }
        },
        {
            "type": "Feature",
            "properties": {
                "name": "Rural Damascus",
                "name_ar": "ريف دمشق",
                "type": "governorate"
            },
            "geometry": {
                "type": "Point",
                "coordinates": [
                    36.5000,
                    33.5000
                ]
            }
        }
    ]
}